[
    {
        "type": "supermarket",
        "name": "イオンタウン千種",
        "address": "愛知県名古屋市千種区千種２丁目１６−１３",
        "lat": 35.1627,
        "lng": 136.9333
    },
    {
        "type": "supermarket",
        "name": "マックスバリュ グランド千種若宮大通店",
        "address": "愛知県名古屋市千種区若宮通５丁目２−１",
        "lat": 35.1565,
        "lng": 136.9381
    },
    {
        "type": "government",
        "name": "名古屋市役所",
        "address": "愛知県名古屋市中区三の丸３丁目１−１",
        "lat": 35.1813,
        "lng": 136.9066
    },
    {
        "type": "government",
        "name": "千種区役所",
        "address": "愛知県名古屋市千種区覚王山通8-37",
        "lat": 35.1668,
        "lng": 136.9535
    },
    {
        "type": "shelter",
        "name": "千種小学校",
        "address": "愛知県名古屋市千種区千種三丁目2-5",
        "lat": 35.1628,
        "lng": 136.9343,
        "details": "洪水: ○, 高潮: －, 土砂: ○, 津波: －, 指定避難所: ○"
    },
    {
        "type": "shelter",
        "name": "今池中学校",
        "address": "愛知県名古屋市千種区今池三丁目19-1",
        "lat": 35.1678,
        "lng": 136.9365,
        "details": "洪水: ②, 高潮: －, 土砂: ②, 津波: －, 指定避難所: ○"
    },
    {
        "type": "shelter",
        "name": "上野小学校",
        "address": "愛知県名古屋市千種区上野二丁目6-1",
        "lat": 35.1812,
        "lng": 136.9453,
        "details": "洪水: ○, 高潮: －, 土砂: ○, 津波: －, 指定避難所: ○"
    }
]
